City_ID,City,Country,Max Temp,Current Description,Lat,Lng,Hotel Name
0,Sambava,MG,77.29,moderate rain,-14.2667,50.1667,Melrose
3,Gamba,GA,82.04,scattered clouds,-2.65,10.0,
6,Obo,CF,92.88,overcast clouds,5.3998,26.4869,
7,Nueva Loja,EC,80.08,moderate rain,0.0847,-76.8828,Limoncocha Great Hotel
9,Rafaela,AR,71.01,broken clouds,-31.2503,-61.4867,Parra Hotel & Suites
10,Tumbes,PE,80.55,overcast clouds,-3.5667,-80.4414,Wyndham Costa del Sol Tumbes
11,Rikitea,PF,78.93,light rain,-23.1203,-134.9692,People ThankYou
12,Cape Town,ZA,76.12,clear sky,-33.9258,18.4232,Southern Sun Waterfront Cape Town
15,Bontang,ID,77.04,overcast clouds,0.1333,117.5,KOPKAR Hotel Bintang Sintuk
16,Hilo,US,67.73,overcast clouds,19.7297,-155.09,Hilo Hawaiian Hotel
17,Manggar,ID,79.05,overcast clouds,-2.8833,108.2667,Guest Hotel
19,Bambous Virieux,MU,80.85,few clouds,-20.3428,57.7575,Casa Tia Villa
20,Touros,BR,86.9,scattered clouds,-5.1989,-35.4608,INN NEW HORIZON
21,Trairi,BR,84.0,overcast clouds,-3.2778,-39.2689,janelas do mar
22,Esperance,AU,66.04,overcast clouds,-33.8667,121.9,Hospitality Esperance
23,Ventersburg,ZA,83.05,overcast clouds,-28.0856,27.1381,Palms Guesthouse Ventersburg
24,Georgetown,MY,82.89,few clouds,5.4112,100.3354,Cititel Penang
25,Lakatoro,VU,79.57,overcast clouds,-16.0999,167.4164,Lakatoro Palm Lodge
29,Kapaa,US,67.98,scattered clouds,22.0752,-159.319,Sheraton Kauai Coconut Beach Resort
30,Port Alfred,ZA,79.2,clear sky,-33.5906,26.891,The Halyards Hotel
37,Mahebourg,MU,80.89,few clouds,-20.4081,57.7,Shandrani Beachcomber Resort & Spa
40,Naifaru,MV,81.54,overcast clouds,5.4444,73.3657,Naifaru Residence Guest House
41,Wendo,ET,67.93,scattered clouds,6.6,38.4167,Bekure tseon hotal
43,Port Elizabeth,ZA,79.09,clear sky,-33.918,25.5701,39 On Nile Guest House
44,Mount Isa,AU,74.97,scattered clouds,-20.7333,139.5,ibis Styles Mt Isa Verona
46,Vaini,TO,78.96,few clouds,-21.2,-175.2,Keleti Beach Resort
51,Saint-Philippe,RE,80.19,few clouds,-21.3585,55.7679,"Chambres d'hôte ""La Trinité"""
56,Santa Rita,BR,88.47,broken clouds,-7.1139,-34.9781,Infinity Motel
61,Souillac,MU,80.98,few clouds,-20.5167,57.5167,Shanti Maurice Resort & Spa
62,Atuona,PF,77.16,light rain,-9.8,-139.0333,Villa Enata
63,Hambantota,LK,77.34,scattered clouds,6.1241,81.1185,Bungalow 63
64,Tirumullaivasal,IN,79.0,overcast clouds,11.2333,79.8333,Almupaark complex
65,Tsiroanomandidy,MG,74.1,light rain,-18.7667,46.0333,Hotel Ravinala
79,Boa Vista,BR,87.78,broken clouds,2.8197,-60.6733,Aipana Plaza Hotel
81,Hermanus,ZA,75.9,overcast clouds,-34.4187,19.2345,Misty Waves Boutique Hotel
83,Bengkulu,ID,77.18,overcast clouds,-3.8004,102.2655,Grage Hotel Bengkulu
84,Lebu,CL,69.71,clear sky,-37.6167,-73.65,Hostal Las Lilas
86,Chiang Klang,TH,70.88,broken clouds,19.2938,100.8617,Sangthong Resort
87,Kruisfontein,ZA,75.79,scattered clouds,-34.0033,24.7314,Oyster Bay House Rental
91,Avarua,CK,71.65,overcast clouds,-21.2078,-159.775,Paradise Inn
93,Dingle,PH,75.04,overcast clouds,10.9995,122.6711,SEGAYA PROPERTY
96,Constitucion,CL,73.0,clear sky,-35.3333,-72.4167,Hotel Boutique Las Azucenas
98,Chiredzi,ZW,86.2,clear sky,-21.05,31.6667,Clevers Hotel Chiredzi
99,Namatanai,PG,78.15,moderate rain,-3.6667,152.4333,Seagulls Inn Namatani
100,Butaritari,KI,81.86,scattered clouds,3.0707,172.7902,Isles Sunset Lodge
101,Sur,OM,71.28,clear sky,22.5667,59.5289,Sur Plaza Hotel
102,Amapa,BR,82.6,overcast clouds,1.0,-52.0,
104,Sao Filipe,CV,80.46,overcast clouds,14.8961,-24.4956,Hotel Xaguate
105,Acapulco,MX,78.62,overcast clouds,16.8634,-99.8901,HS Hotsson Smart Acapulco
110,Taltal,CL,71.6,clear sky,-25.4,-70.4833,Residencial Karime
112,Aguimes,ES,69.66,few clouds,27.9054,-15.4461,Hotel Villa de Aguimes
113,Carnarvon,AU,82.47,clear sky,-24.8667,113.6333,Hospitality Carnarvon
116,Lorengau,PG,80.71,overcast clouds,-2.0226,147.2712,Lorengau Harbourside Hotel
117,Mahibadhoo,MV,81.07,overcast clouds,3.7833,72.9667,Omadhoo Inn
119,Saldanha,ZA,71.65,overcast clouds,-33.0117,17.9442,Blue Bay Lodge
123,Ahipara,NZ,68.61,overcast clouds,-35.1667,173.1667,Ahipara Holiday Park
124,Ahuimanu,US,71.85,few clouds,21.4447,-157.8378,Paradise Bay Resort
125,Mahajanga,MG,84.22,few clouds,-15.7167,46.3167,Restaurant Greedy Coco Lodge Majunga
127,Takoradi,GH,84.4,overcast clouds,4.8845,-1.7554,Raybow International Hotel
130,Alto Araguaia,BR,83.66,few clouds,-17.3147,-53.2153,Araguaia Palace Hotel
137,Castro,BR,78.24,clear sky,-24.7911,-50.0119,CHACARA BAILLY
140,Arawa,PG,75.88,overcast clouds,-6.2132,155.5367,Coastline Guest House
141,Flinders,AU,67.8,overcast clouds,-34.5833,150.8552,Shellharbour Resort & Conference Centre
142,Olinda,BR,87.53,scattered clouds,-8.0089,-34.8553,Pousada Sitio Do Carmo
146,Port Lincoln,AU,68.4,overcast clouds,-34.7333,135.8667,Port Lincoln Hotel
147,Richards Bay,ZA,79.81,clear sky,-28.783,32.0377,BON Hotel Waterfront Richards Bay
149,Cidreira,BR,79.41,clear sky,-30.1811,-50.2056,Hotel Castelo
151,Kankon,IN,80.4,clear sky,15.0167,74.0167,Palolem Beach Resort
154,Pisco,PE,72.01,clear sky,-13.7,-76.2167,Hotel San Isidro Oficial
155,Bredasdorp,ZA,74.52,scattered clouds,-34.5322,20.0403,Bredasdorp Country Manor
158,Salinopolis,BR,83.48,broken clouds,-0.6136,-47.3561,Salinas Park Resort Maçarico AP101
160,Ghugus,IN,68.83,broken clouds,19.9333,79.1333,Rajiv Colony Tempo Club
162,Likasi,CD,68.05,light rain,-10.9814,26.7333,TABERNACLE DE LIKASI
164,Kavaratti,IN,80.89,clear sky,10.5669,72.642,Hotels in Lakshadweep Islands
169,Chuy,UY,75.99,overcast clouds,-33.6971,-53.4616,Nuevo Hotel Plaza
172,Aquidauana,BR,96.89,few clouds,-20.4711,-55.7872,HOTEL ARARAS
174,Kaeo,NZ,71.33,overcast clouds,-35.1,173.7833,Bushido Lodge
176,Cabo San Lucas,MX,69.51,scattered clouds,22.8909,-109.9124,Hotel Tesoro Los Cabos
177,Imbituba,BR,84.09,clear sky,-28.24,-48.6703,Praia Hotel Imbituba
178,Arraial Do Cabo,BR,80.46,broken clouds,-22.9661,-42.0278,Pousada Porto Praia
179,Geraldton,AU,72.01,clear sky,-28.7667,114.6,Broadwater Mariner Resort
181,Ponta Do Sol,PT,67.12,few clouds,32.6667,-17.1,Hotel do Campo
182,Malkangiri,IN,68.02,scattered clouds,18.35,81.9,Motu Nana
184,Cap Malheureux,MU,81.09,broken clouds,-19.9842,57.6142,Pereybere Hotel & Spa
187,Tautira,PF,75.22,overcast clouds,-17.7333,-149.15,Pension Oaoa
189,Victoria,HK,68.18,broken clouds,22.2855,114.1577,Mini Hotel Central
190,Alofi,NU,75.09,few clouds,-19.0595,-169.9187,Taloa Heights
191,Soyo,AO,86.05,broken clouds,-6.1349,12.3689,Hotel Mpampa
192,Puerto Ayora,EC,78.76,overcast clouds,-0.7393,-90.3518,Finch Bay Galapagos Hotel
193,Aripuana,BR,77.7,overcast clouds,-9.1667,-60.6333,
195,Thio,NC,75.16,overcast clouds,-21.6167,166.2167,La Ferme de Thio
196,Nouadhibou,MR,82.38,overcast clouds,20.931,-17.0347,El Medina
197,Shakawe,BW,80.11,broken clouds,-18.3667,21.85,Ditlhapi Guest House
199,Isangel,VU,79.38,broken clouds,-19.55,169.2667,Tanna Lodge
200,Meulaboh,ID,78.26,broken clouds,4.1363,96.1285,Kost Pria
201,Faridpur,BD,68.0,clear sky,23.6,89.8333,Progoti Muslim hostel
203,Tecate,MX,70.2,clear sky,32.5667,-116.6333,Hotel El Dorado
204,Nhulunbuy,AU,79.41,clear sky,-12.2333,136.7667,East Arnhem Real Estate
205,Waingapu,ID,77.11,overcast clouds,-9.6567,120.2641,Pondok Wisata Elim
212,Coahuayana,MX,72.88,broken clouds,18.7333,-103.6833,El rranchito michuacan de ocampos
215,Sinnamary,GF,79.86,broken clouds,5.3833,-52.95,ALETHEIA Appartement Sinnamary
218,Ancud,CL,75.22,broken clouds,-41.8697,-73.8203,Hotel Arena Gruesa
220,Faanui,PF,79.61,light rain,-16.4833,-151.75,Bora-Bora Pearl Beach Resort & Spa
221,Joaquim Nabuco,BR,94.33,scattered clouds,-8.6244,-35.5333,Baia Beira Rio
222,Maldonado,UY,67.39,overcast clouds,-34.6667,-54.9167,La Cimarrona
223,Leo,BF,96.62,scattered clouds,11.1,-2.1,Hotel Sissilis
225,Pak Phanang,TH,83.07,overcast clouds,8.3511,100.202,Green Park Inn Hotel
226,Abomsa,ET,75.38,clear sky,9.9833,39.9833,
228,Nelson Bay,AU,72.0,broken clouds,-32.7167,152.15,Mantra Nelson Bay
233,Moussoro,TD,88.38,overcast clouds,13.6408,16.4901,Hôtel Salama
234,Port-Gentil,GA,87.76,scattered clouds,-0.7193,8.7815,Fengshui Residence
235,Tolaga Bay,NZ,77.41,broken clouds,-38.3667,178.3,Tolaga Bay Motel
238,Plettenberg Bay,ZA,73.49,overcast clouds,-34.0527,23.3716,Thanda Vista B&B
242,Weligama,LK,76.84,overcast clouds,5.9667,80.4167,Weligama Bay Resort
243,Bandarbeyla,SO,76.96,scattered clouds,9.4942,50.8122,JABIR HOTEL
245,Gizo,SB,79.38,overcast clouds,-8.103,156.8419,Imagination Island
246,Hithadhoo,MV,81.88,broken clouds,-0.6,73.0833,Scoop Guest House
249,Vila Velha,BR,82.35,scattered clouds,-20.3297,-40.2925,Quality Suites Vila Velha
251,Contamana,PE,88.83,light rain,-7.3333,-75.0167,Shiringal Touristic Park
252,Mbigou,GA,76.95,moderate rain,-1.9005,11.906,
255,Pemba,MZ,83.1,thunderstorm,-12.974,40.5178,Guesthouse Samotina
256,Atar,MR,80.65,few clouds,20.5169,-13.0499,Oumou Elghoura
257,Xuddur,SO,82.62,few clouds,4.1213,43.8894,Banjanay Hotel
258,Kokopo,PG,76.37,overcast clouds,-4.352,152.2633,Kokopo Beach Bungalow Resort
259,Makasar,ID,75.25,few clouds,-5.14,119.4221,Hotel Horison Ultima Makassar
261,Coihaique,CL,68.61,clear sky,-45.5752,-72.0662,Diego De Almagro Coyhaique
266,Juba,SS,93.51,scattered clouds,4.8517,31.5825,ROYAL PALACE HOTEL - JUBA
268,Vila Do Maio,CV,83.19,overcast clouds,15.1333,-23.2167,Hotel Marilu
269,Padang,ID,78.24,overcast clouds,-0.9492,100.3543,Mercure Padang
271,Nabire,ID,75.74,light rain,-3.3667,135.4833,Hotel Nusantara Nabire
272,Nambucca Heads,AU,66.2,overcast clouds,-30.65,153.0,Marcel Towers Holiday Apartments
274,Kavieng,PG,80.82,light rain,-2.5744,150.7967,Nusa Island Retreat
277,Karratha,AU,86.85,scattered clouds,-20.7377,116.8463,ibis Styles Karratha
279,Palauig,PH,78.21,overcast clouds,15.435,119.9045,Alperi Botique Resort
280,Ferkessedougou,CI,97.84,scattered clouds,9.6,-5.2,Hotel Chateau
281,Dzaoudzi,YT,82.29,clear sky,-12.7887,45.2699,Le Rocher
285,Agadir,MA,75.65,clear sky,30.4202,-9.5982,Iberostar Founty Beach
290,Mariana,BR,68.05,overcast clouds,-20.3778,-43.4161,MINAS POUSADA E HOTEL LTDA
292,East London,ZA,83.34,few clouds,-33.0153,27.9116,Tu Casa
294,Alyangula,AU,76.87,broken clouds,-13.8483,136.4192,Groote Eylandt Lodge
296,Lagos,NG,91.72,overcast clouds,6.5833,3.75,
297,Santa Maria,BR,97.2,broken clouds,-29.6842,-53.8069,Hotel Morotin
298,Salalah,OM,77.09,few clouds,17.0151,54.0924,"HAMDAN PLAZA HOTEL SALALAH, an HTG Hotel"
299,Bonthe,SL,87.22,few clouds,7.5264,-12.505,Bonthe Holiday Village
303,Los Llanos De Aridane,ES,66.13,scattered clouds,28.6585,-17.9182,Valle Aridane
306,Palmerston,AU,76.98,broken clouds,-12.486,130.9833,Quest Palmerston - Serviced Apartments and Accommodation
309,Finschhafen,PG,79.65,overcast clouds,-6.6024,147.8681,Cossam Guest House
311,Kidal,ML,85.46,clear sky,18.4411,1.4078,
312,Pontianak,ID,76.98,scattered clouds,-0.0333,109.3333,Aston Pontianak Hotel & Convention Center
313,Saint-Pierre,RE,80.28,scattered clouds,-21.3393,55.4781,Lindsey Hôtel
314,Oranjestad,AW,84.15,scattered clouds,12.524,-70.027,Divi Village Golf & Beach Resort
317,Lamu,KE,80.82,overcast clouds,-2.2717,40.902,Lamu House
319,Caravelas,BR,84.72,overcast clouds,-17.7125,-39.2481,Pousada dos Navegantes
320,Mazagao,BR,89.65,broken clouds,-0.115,-51.2894,Recanto dos Ferreiras
321,Cumana,VE,89.69,broken clouds,10.4635,-64.1775,Posada Acuarela Los Roques
322,Morondava,MG,82.36,light rain,-20.2833,44.2833,La Case Bambou
324,Tamandare,BR,86.72,scattered clouds,-8.7597,-35.1047,Pousada 100 Passos
326,Sola,VU,77.76,overcast clouds,-13.8833,167.55,Leumerus Bungalows
327,Puerto Escondido,MX,77.83,clear sky,15.85,-97.0667,Aldea del Bazar Hotel and Spa
337,Aitape,PG,78.48,overcast clouds,-3.1374,142.3475,
339,Hualmay,PE,75.09,broken clouds,-11.0964,-77.6139,Hotel Villa Kitzia Huacho
340,Isiro,CD,85.08,broken clouds,2.7739,27.616,Guest House Hewa Bora
344,Rawson,AR,78.51,overcast clouds,-43.3002,-65.1023,Hosteria Sampedro
345,Praya,CV,82.94,overcast clouds,14.9215,-23.5087,LT Aparthotel
348,Mae Ramat,TH,67.24,clear sky,16.984,98.5166,บ้านโฮ่งโฮมสเตย์ แม่ระมาด ตาก
350,Benguela,AO,82.65,overcast clouds,-12.5763,13.4055,Hotel Praia Morena
351,Resistencia,AR,73.45,overcast clouds,-27.4606,-58.9839,Niyat Urban Hotel
354,Santa Rosa,PH,81.1,overcast clouds,14.3122,121.1114,Erlyn’s Sta Rosa City Home
355,Honiara,SB,76.3,overcast clouds,-9.4333,159.95,Heritage Park Hotel
357,Cravo Norte,CO,90.07,overcast clouds,6.3017,-70.2041,Hotel Potosí Los Mirtos
358,Puerto Colombia,CO,86.09,broken clouds,10.9878,-74.9547,Hotel El Emigrante
359,Irati,BR,86.32,clear sky,-25.4672,-50.6511,Projetos e Execuções Elétricas Thoms Ltda
360,Umm Kaddadah,SD,74.34,clear sky,13.6017,26.6876,
361,Mombasa,KE,79.63,overcast clouds,-4.0547,39.6636,Marigold Guest House
363,Male,MV,82.35,broken clouds,4.1748,73.5089,Hotel Octave Maldives
364,Tutoia,BR,87.78,overcast clouds,-2.7619,-42.2744,Pousada Guará's
369,Ati,TD,90.01,broken clouds,13.2154,18.3353,
371,Bol,TD,78.66,clear sky,13.4586,14.7147,Hotel 3 Etoiles
374,Conakry,GN,90.36,haze,9.538,-13.6773,Riviera Royal Hotel
376,Japura,ID,73.92,scattered clouds,-0.3167,102.35,Rumah mbah Jamah
378,Inhambane,MZ,84.18,few clouds,-23.865,35.3833,Oceano
379,Matara,LK,76.75,overcast clouds,5.9485,80.5353,Amaloh Boutique Resort
380,Chimore,BO,80.44,moderate rain,-16.9833,-65.1333,Bichito
383,Luwuk,ID,76.32,overcast clouds,-0.9516,122.7875,Hotel Santika Luwuk
386,Ipaba,BR,75.34,light rain,-19.4136,-42.4194,Toca Do Bicho
388,Anloga,GH,91.62,overcast clouds,5.7947,0.8973,Pin Drop Hotel
389,Danane,CI,98.17,few clouds,7.2596,-8.155,Lmd
390,Rio De Janeiro,BR,81.91,broken clouds,-22.9028,-43.2075,Hotel Málaga
392,Ballina,AU,73.36,overcast clouds,-28.8667,153.5667,Ramada Hotel & Suites by Wyndham Ballina Byron
393,Yanam,IN,79.2,few clouds,16.7333,82.2167,The Regency Hotel
394,Carlagan,PH,75.83,light rain,14.975,122.0456,Cabatagan Island
396,Aracruz,BR,81.61,overcast clouds,-19.8203,-40.2733,OYO Hotel Iramar
400,Manikganj,BD,67.98,clear sky,23.8553,90.0125,Girls Hostel- Govt Debendra College
402,Lekoni,GA,83.61,broken clouds,-1.5843,14.2591,Rendez-vous Des ChasseursD
405,Vao,NC,80.17,overcast clouds,-22.6667,167.4833,Hotel Kou-Bugny
406,Namibe,AO,80.44,broken clouds,-15.1961,12.1522,Hotel Chik Chik Namibe
407,French Harbor,HN,82.0,few clouds,16.35,-86.4333,"Fantasy Island Beach Resort, Dive & Marina"
410,Sao Joao Da Barra,BR,80.69,overcast clouds,-21.6403,-41.0511,Pousada Porto De Canoas
412,Charleston,US,66.33,clear sky,32.7766,-79.9309,The Mills House Wyndham Grand Hotel
413,Caxito,AO,83.05,few clouds,-8.5785,13.6643,
415,Neiafu,TO,81.28,few clouds,-18.65,-173.9833,Mystic Sands Beachfront Accommodation
416,Coquimbo,CL,67.73,scattered clouds,-29.9533,-71.3436,Hostel Del Puerto
417,Necochea,AR,65.03,clear sky,-38.5473,-58.7368,dyd -mar Hotel
418,Bathsheba,BB,83.01,broken clouds,13.2167,-59.5167,Atlantis Hotel
426,Buin,CL,84.06,broken clouds,-33.7333,-70.75,Paihuen
429,Amahai,ID,77.61,overcast clouds,-3.3333,128.9167,HOTEL ISABELA
430,Port Shepstone,ZA,79.05,clear sky,-30.7414,30.455,My Den Beachfront Bed and Breakfast | Self-Catering
431,Quatre Cocos,MU,80.71,broken clouds,-20.2078,57.7625,Sunrise Attitude Hotel
432,Mahenge,TZ,65.07,light rain,-8.6833,36.7167,Mkondosii Guest House
433,Gurupa,BR,82.27,overcast clouds,-1.405,-51.64,Hotel Vitória
434,Mbekenyera,TZ,71.76,overcast clouds,-10.0,38.9833,
435,Sawakin,SD,73.04,clear sky,19.1059,37.3321,فندق الدويم
436,Busdi,PH,66.29,overcast clouds,8.2761,125.2514,
439,San Quintin,MX,66.76,clear sky,30.4833,-115.95,Don Eddie's Landing
444,Vilhena,BR,80.82,broken clouds,-12.7406,-60.1458,Hotel Mirage
450,Bom Jardim,BR,88.14,light rain,-7.7958,-35.5872,Pousada do Posto Jose Breno
452,Yambio,SS,92.32,overcast clouds,4.5721,28.3955,Naivasha Hotel
454,Viedma,AR,78.62,overcast clouds,-40.8135,-62.9967,Hotel Cristal
455,Chokwe,MZ,84.04,clear sky,-24.5333,32.9833,Complexo Sonho Real
457,Kloulklubed,PW,79.3,overcast clouds,7.0419,134.2556,Storyboard Beach Resort
461,Santa Vitoria Do Palmar,BR,76.24,overcast clouds,-33.5189,-53.3681,Hostel Comodoro
463,Kimbe,PG,74.77,overcast clouds,-5.5502,150.1429,Kimbe Bay Hotel
465,San Blas,MX,73.76,clear sky,21.5167,-105.2667,Hotel Posada del Rey
467,Fonte Boa,BR,79.39,overcast clouds,-2.4959,-66.2662,
471,Ibra,OM,72.95,clear sky,22.6906,58.5334,مزرعة راحة النفوس المنزفة
472,Adrar,MR,78.75,few clouds,20.5022,-10.0711,
473,Beira,MZ,84.29,few clouds,-19.8436,34.8389,Beira Terrace Hotel
474,San Cristobal,VE,73.58,overcast clouds,7.7669,-72.225,Posada Villaven C.A.
475,Oussouye,SN,98.78,clear sky,12.485,-16.5469,Auberge du Routard
477,West Bay,KY,84.07,broken clouds,19.3667,-81.4167,Calypso Cove
484,Ixtapa,MX,79.25,clear sky,20.7,-105.2,Hotel Plaza Providencia
485,Ariquemes,BR,80.85,overcast clouds,-9.9133,-63.0408,Hotel Sol Nascente - Ariquemes - RO
487,Labuan,MY,75.56,moderate rain,5.2767,115.2417,Tiara Labuan Hotel
499,Luganville,VU,78.24,overcast clouds,-15.5333,167.1667,The Espiritu Hotel
502,Manali,IN,81.07,few clouds,13.1667,80.2667,Sarathy Lodge
503,Puerto Leguizamo,CO,88.86,overcast clouds,-0.1934,-74.7819,la casona de juancho
504,Lotofaga,WS,74.98,light rain,-13.9764,-171.8578,Sataoa Beach Fales
506,Birao,CF,90.66,clear sky,10.2849,22.7882,
507,Mali,GN,79.92,clear sky,12.079,-12.2982,Hotel La Dame de Mali
509,Jawhar,SO,78.51,overcast clouds,2.7809,45.5005,hantiwadaag village part one
511,Bosaso,SO,76.26,few clouds,11.2842,49.1816,Red Sea Hotel
513,Buchanan,LR,93.16,overcast clouds,5.8808,-10.0467,Kamaneahn Hotel Inc
516,San Policarpo,PH,78.35,overcast clouds,12.1791,125.5072,Agapita M. Nicart
517,San Carlos De Bariloche,AR,71.35,clear sky,-41.1456,-71.3082,Hotel Patagonia
519,Acarau,BR,84.22,overcast clouds,-2.8856,-40.12,castelo pizzaria
520,Murray Bridge,AU,74.57,scattered clouds,-35.1167,139.2667,Balcony On Sixth Lodge
521,Talara,PE,79.56,broken clouds,-4.5772,-81.2719,Hostal Oro Negro
523,Kununurra,AU,78.78,few clouds,-15.7667,128.7333,Hotel Kununurra
524,Chau Doc,VN,74.41,overcast clouds,10.7,105.1167,JADE AND SAPPHIRE GUESTHOUSE
525,Pitimbu,BR,88.39,broken clouds,-7.4706,-34.8086,Reserva do Abiaí
528,Arica,CL,78.35,clear sky,-18.475,-70.3042,Hostal Jardin Del Sol
531,Ler,SS,90.03,scattered clouds,8.3018,30.1418,
532,Maluso,PH,77.09,overcast clouds,6.543,121.8753,
535,Luanda,AO,82.4,clear sky,-8.8368,13.2343,Hotel Fórum
537,Batticaloa,LK,78.17,overcast clouds,7.7102,81.6924,Grand Star Guest House
541,Mhlume,SZ,88.65,clear sky,-26.0333,31.85,Mhlume Country Club
545,Lompoc,US,70.12,clear sky,34.6391,-120.4579,"Holiday Inn Express Lompoc, an IHG Hotel"
548,Marrakesh,MA,71.67,few clouds,31.6315,-8.0083,Novotel Marrakech Hivernage
549,George,ZA,76.55,clear sky,-33.963,22.4617,Protea Hotel by Marriott George King George
550,Cururupu,BR,80.11,overcast clouds,-1.8283,-44.8683,POUSADA TRAVÉS'CIA
552,Kirakira,SB,77.58,overcast clouds,-10.4544,161.9205,SanBiz Lodge
554,Buala,SB,76.69,light rain,-8.145,159.5921,Maringe Lagoon Lodge
555,Valparaiso,CL,68.23,few clouds,-33.0393,-71.6273,Hotel Ultramar
556,Kefamenanu,ID,71.35,overcast clouds,-9.4467,124.4781,Sokowindo Losmen
559,Buenaventura,CO,80.8,few clouds,3.8801,-77.0312,La Casa Blanca Hotel
561,Rosa Zarate,EC,73.92,light rain,0.3333,-79.4667,Piscinas y Recepciones Hecalash
565,Da Nang,VN,75.18,broken clouds,16.0678,108.2208,Sun River Hotel
566,Rondon,BR,86.11,clear sky,-23.4172,-52.7722,Área de Lazer JK
567,Voh,NC,76.44,overcast clouds,-20.9667,164.7,Le gîte du Koniambo
568,Coffs Harbour,AU,66.16,scattered clouds,-30.3,153.1333,Aquajet Motel
570,Tacuarembo,UY,70.0,overcast clouds,-31.7333,-55.9833,Complejo San Fructuoso
572,Mango,US,79.14,clear sky,27.9797,-82.3065,Hilton Garden Inn Tampa East/Brandon
574,Kutum,SD,75.11,scattered clouds,14.2,24.6667,Dibbo areaمنطقة دبو
575,Talcahuano,CL,80.28,clear sky,-36.7167,-73.1167,departamento comodo
576,Mecca,SA,79.03,clear sky,21.4267,39.8261,"Makkah Clock Royal Tower, A Fairmont Hotel"
577,Manyana,BW,87.64,few clouds,-23.4,21.7167,
579,Bongandanga,CD,94.06,overcast clouds,1.5,21.05,
580,Labuhan,ID,77.61,heavy intensity rain,-6.8844,112.2051,DoubleFAG
581,Thinadhoo,MV,82.02,overcast clouds,0.5333,72.9333,
582,Maputo,MZ,84.22,few clouds,-25.9653,32.5892,Pestana Rovuma
586,Jodhpur,IN,65.66,clear sky,26.2867,73.03,"Umaid Bhawan Palace, Jodhpur"
587,Liku,ID,73.36,heavy intensity rain,-0.7275,119.8922,Wahyu
588,Pimentel,PE,73.69,clear sky,-6.8367,-79.9342,Casona Del Muelle
589,Miri,MY,77.14,scattered clouds,4.4148,114.0089,"Mega Hotel, Miri"
593,Sibolga,ID,76.95,broken clouds,1.7427,98.7792,Hotel Syariah CN Darussalam
594,Kuruman,ZA,88.99,scattered clouds,-27.4524,23.4325,Cornerstone Guest House
598,Gigmoto,PH,76.48,light rain,13.7796,124.39,Cj's Travellers Inn
600,Samarai,PG,80.28,overcast clouds,-10.6167,150.6667,Nuli Sapi
603,Kahului,US,70.84,clear sky,20.8947,-156.47,Maui Seaside Hotel
604,Sabla,NG,92.35,clear sky,12.7525,4.7077,
605,Funadhoo,MV,81.52,light rain,6.15,73.2667,Dhaffalhu Tourist Lodge
608,Casambalangan,PH,75.16,overcast clouds,18.3765,122.1274,Villa Saturnina
610,Charters Towers,AU,73.9,clear sky,-20.1,146.2667,Cattleman's Rest Motor Inn
611,Sarh,TD,96.71,clear sky,9.1429,18.3923,Domicile 1sur le goudron
613,Rubiataba,BR,78.82,overcast clouds,-15.1644,-49.8033,Pousada dos anjos
614,That Phanom,TH,75.52,overcast clouds,16.9364,104.7104,ณ ธาตุพนมเพลส Na That Panom Place Hotel
615,Hirara,JP,69.71,overcast clouds,24.8,125.2833,Hotel Atoll Emerald Miyakojima
617,Kathu,TH,87.69,overcast clouds,7.9178,98.3332,Novotel Phuket Resort
619,Antofagasta,CL,74.21,clear sky,-23.65,-70.4,"Holiday Inn Express Antofagasta, an IHG Hotel"
620,Birnin Kebbi,NG,93.27,clear sky,12.4539,4.1975,Saffar Guest Inn Ltd
621,Sri Aman,MY,75.25,overcast clouds,1.2376,111.4621,Seri Simanggang Hotel
622,Acajutla,SV,85.8,clear sky,13.5928,-89.8275,Laureles
623,Palembang,ID,80.69,few clouds,-2.9167,104.7458,ASTON Palembang Hotel & Conference Center
625,Sao Jose Da Coroa Grande,BR,86.32,scattered clouds,-8.8978,-35.1478,Crôa Mares Hotel
626,Las Palmas,ES,66.99,few clouds,28.4204,-14.0131,Casillas De Morales 59.
627,Nishihara,JP,68.05,mist,26.1842,127.7558,Minshuku Agaihama
629,Grand Gaube,MU,81.0,broken clouds,-20.0064,57.6608,Veranda Paul et Virginie Hotel & Spa
630,Miranda,CO,73.53,overcast clouds,3.2499,-76.2281,unidiversidad organica la utopia
633,Itaituba,BR,78.96,broken clouds,-4.2761,-55.9836,Hotel Campos
636,Vallenar,CL,82.17,clear sky,-28.5708,-70.7581,Humacao Bed & Breakfast
637,Maceio,BR,80.04,broken clouds,-9.6658,-35.7353,Poutur Pousada
638,Arlit,NE,83.53,clear sky,18.7369,7.3853,Case de Passage De la Prefecture
639,Esperanza,DO,84.78,clear sky,19.5847,-70.9849,Cabañas Bernard - Alojamientos Turísticos
644,Pijijiapan,MX,90.82,clear sky,15.7011,-93.23,Hotel Rosita
645,Aloleng,PH,78.03,overcast clouds,16.1307,119.7824,Steve Walden and Emma Sison-Walden Residence
646,Mitsamiouli,KM,79.39,light rain,-11.3847,43.2844,Foyer ADM
648,Umm Lajj,SA,74.17,clear sky,25.0213,37.2685,Moon light Furnished Units
655,Tessalit,ML,82.69,broken clouds,20.1986,1.0114,
657,Tres Palos,MX,79.23,overcast clouds,18.1833,-101.6167,
658,Tomatlan,MX,80.89,scattered clouds,19.9333,-105.25,El Salvial
660,Pemangkat,ID,76.5,overcast clouds,1.1667,108.9667,Ramah Kost KITA
661,Jati,PK,70.59,clear sky,24.3539,68.2671,Cafe Lala Rehan Restaurant
662,Tambura,SS,93.09,broken clouds,5.6,27.4667,Rikito Lodge
664,Morro Bay,US,66.56,clear sky,35.3658,-120.8499,Inn at Morro Bay
665,San Luis,AR,70.81,few clouds,-33.295,-66.3356,Huarpes Hotel
666,Broken Hill,AU,74.91,clear sky,-31.95,141.4333,Royal Exchange Hotel
668,Rocha,UY,67.71,overcast clouds,-34.4833,-54.3333,Hotel Arrarte
671,Sao Paulo Do Potengi,BR,87.48,broken clouds,-5.895,-35.7628,Pousada e Restaurante Carne Assada do Ari
672,Lufilufi,WS,74.98,light rain,-13.8745,-171.5986,Leuaina Beach Resort and Spa
675,Galle,LK,77.72,overcast clouds,6.0367,80.217,Amangalla
676,Manzanillo,CU,82.69,clear sky,20.3433,-77.1167,"HOSTAL ""THE YELLOW HOUSE"""
680,Fort Abbas,PK,66.4,clear sky,29.1925,72.8536,AsAd's House
681,Tiarei,PF,75.22,overcast clouds,-17.5333,-149.3333,Le Rocher de Tahiti
684,Tuy Hoa,VN,73.87,broken clouds,13.0833,109.3,CenDeluxe Hotel Tuy Hoa
697,Abiramam,IN,81.72,overcast clouds,9.4667,78.45,
701,Pauini,BR,82.09,overcast clouds,-7.7136,-66.9764,Casa do Kiwliks
703,Maragogi,BR,86.5,broken clouds,-9.0122,-35.2225,Salinas do Maragogi All Inclusive Resort
705,Kupang,ID,78.44,overcast clouds,-10.1667,123.5833,Hotel On The Rock by Prasanthi
